City,Cloudiness(%),Country,Date,Humidity(%),Lat,Lng,Max Temp (F),Wind Speed (mph)
Punta Arenas,0,CL,1604294738,76,-53.15,-70.92,50.0,9.17
Guigue,100,VE,1604294739,88,10.09,-67.78,71.87,2.86
Albany,74,US,1604294442,64,42.6,-73.97,37.99,1.01
Rikitea,78,PF,1604294707,85,-23.12,-134.97,73.92,24.65
Vao,100,NC,1604294739,82,-22.67,167.48,74.53,14.25
Ushuaia,40,AR,1604294160,58,-54.8,-68.3,55.4,4.7
Temba,98,ZA,1604294739,84,-25.38,28.26,61.0,1.99
Half Moon Bay,5,US,1604294739,82,37.46,-122.43,63.0,4.59
Meiktila,18,MM,1604294739,67,20.87,95.87,85.75,7.36
Aripuanã,86,BR,1604294740,98,-9.17,-60.63,69.98,0.72
Lagoa,16,PT,1604294740,67,39.05,-27.98,61.92,16.69
Coquimbo,90,CL,1604294501,82,-29.95,-71.34,55.4,2.24
Nouadhibou,0,MR,1604294740,53,20.93,-17.03,73.4,12.75
Fortuna,1,US,1604294583,93,40.6,-124.16,50.0,8.05
Mataura,25,NZ,1604294180,68,-46.19,168.86,55.99,10.0
Robertson,40,US,1604294741,47,36.52,-86.87,39.99,4.7
Sitka,90,US,1604294741,82,57.05,-135.33,57.2,31.09
Lorengau,29,PG,1604294741,68,-2.02,147.27,85.5,1.72
Ancud,50,CL,1604294741,93,-41.87,-73.82,46.99,2.24
Cabo San Lucas,5,MX,1604294565,73,22.89,-109.91,75.2,8.05
Jamestown,90,US,1604294238,92,42.1,-79.24,34.0,23.04
Kapaa,90,US,1604294708,88,22.08,-159.32,75.2,5.82
Ochamchira,100,GE,1604294742,79,42.71,41.47,58.5,3.71
Tasiilaq,0,GL,1604294742,58,65.61,-37.64,24.8,4.7
Barrow,90,US,1604294742,68,71.29,-156.79,26.6,9.17
Saskylakh,66,RU,1604294742,89,71.92,114.08,-8.59,9.48
Hasaki,75,JP,1604294714,73,35.73,140.83,70.0,10.29
Gamba,93,GA,1604294742,92,-2.65,10.0,75.69,2.66
Port Alfred,8,ZA,1604294743,76,-33.59,26.89,66.87,17.0
Tuktoyaktuk,90,CA,1604294743,78,69.45,-133.04,10.4,17.22
Cerfontaine,100,BE,1604294743,87,50.17,4.41,63.0,20.8
Jumla,0,NP,1604294743,30,29.27,82.18,63.45,5.39
Norman Wells,75,CA,1604294743,84,65.28,-126.83,1.4,4.7
Coahuayana Viejo,25,MX,1604294743,81,18.73,-103.68,77.61,2.64
Chegdomyn,99,RU,1604294744,89,51.12,133.02,33.01,3.38
Mitsamiouli,70,KM,1604294744,71,-11.38,43.28,78.3,9.37
Yangi Marg`ilon,100,UZ,1604294744,22,40.43,71.72,59.0,2.24
Tuatapere,11,NZ,1604294744,65,-46.13,167.68,55.0,8.99
Yeppoon,0,AU,1604294744,38,-23.13,150.73,89.6,10.29
Ouallam,0,NE,1604294744,19,14.32,2.09,76.01,11.99
Severo-Kuril'sk,43,RU,1604294744,78,50.68,156.12,42.78,13.4
Poum,69,NC,1604294745,73,-20.23,164.02,78.31,8.7
Adré,94,TD,1604294745,32,13.47,22.2,74.57,15.28
Kjøllefjord,0,NO,1604294527,80,70.95,27.35,41.0,39.15
Kaitangata,78,NZ,1604294745,66,-46.28,169.85,53.01,8.01
Upernavik,98,GL,1604294745,92,72.79,-56.15,16.48,4.5
Vaitape,18,PF,1604294745,78,-16.52,-151.75,81.27,19.73
Carutapera,39,BR,1604294745,85,-1.2,-46.02,76.5,4.21
Cosalá,42,MX,1604294746,73,24.41,-106.69,71.01,6.26
Cordele,1,US,1604294746,71,31.96,-83.78,55.99,4.7
Carnarvon,0,AU,1604294746,47,-24.87,113.63,75.2,16.11
Walla Walla,1,US,1604294746,80,46.06,-118.34,48.0,8.05
Mount Gambier,68,AU,1604294746,28,-37.83,140.77,82.4,11.41
Bluff,27,NZ,1604294525,65,-46.6,168.33,55.0,8.99
Ponta do Sol,20,PT,1604294527,55,32.67,-17.1,66.99,3.36
Penzance,75,GB,1604294747,87,50.12,-5.54,55.4,26.4
Pevek,100,RU,1604294747,97,69.7,170.31,14.94,7.67
Salsomaggiore Terme,91,IT,1604294747,98,44.81,9.98,51.01,2.46
Port Hedland,11,AU,1604294747,45,-20.32,118.57,87.8,20.8
Iqaluit,90,CA,1604294747,72,63.75,-68.51,15.8,8.05
Christchurch,100,NZ,1604294539,54,-43.53,172.63,57.2,12.75
Khatanga,99,RU,1604294747,93,71.97,102.5,7.18,8.1
Pokhara,0,NP,1604294748,38,28.23,83.98,81.52,5.28
Hermanus,97,ZA,1604294748,77,-34.42,19.23,66.99,5.01
Levice,100,SK,1604294748,98,48.22,18.61,54.0,3.0
Mar del Plata,0,AR,1604294748,100,-38.0,-57.56,57.99,2.24
Bredasdorp,99,ZA,1604294444,77,-34.53,20.04,66.2,11.41
Sioux Lookout,90,CA,1604294748,63,50.1,-91.92,28.4,13.87
Maceió,0,BR,1604294621,88,-9.67,-35.74,75.2,5.82
Lata,83,PT,1604294749,93,40.16,-8.33,64.0,1.25
Evans,1,US,1604294749,30,33.53,-82.13,57.2,12.75
Pushkar,0,IN,1604294749,14,26.5,74.55,81.79,0.89
Manicoré,0,BR,1604294749,94,-5.81,-61.3,75.2,2.24
Darnah,38,LY,1604294749,65,32.77,22.64,68.81,12.59
Nanortalik,0,GL,1604294557,90,60.14,-45.24,32.16,35.52
Hobart,0,AU,1604294313,49,-42.88,147.33,81.0,8.05
Busselton,97,AU,1604294750,65,-33.65,115.33,64.0,3.96
Curup,96,ID,1604294750,67,-3.47,102.53,79.99,4.25
Marfino,90,RU,1604294750,100,55.7,37.38,41.0,8.95
Mahébourg,75,MU,1604294750,57,-20.41,57.7,75.2,10.29
New Norfolk,92,AU,1604294750,30,-42.78,147.06,81.0,3.24
Avarua,93,CK,1604294750,94,-21.21,-159.78,75.2,12.75
Saint George,1,US,1604294327,17,37.1,-113.58,57.2,3.71
Port Elizabeth,40,ZA,1604294751,88,-33.92,25.57,64.4,9.17
Sørland,75,NO,1604294751,81,67.67,12.69,50.0,9.17
Kununurra,48,AU,1604294751,24,-15.77,128.73,102.2,6.93
Puerto Ayacucho,100,VE,1604294751,95,5.66,-67.62,73.27,1.23
Kodinsk,100,RU,1604294752,93,58.69,99.18,33.58,10.56
Cap Malheureux,75,MU,1604294752,57,-19.98,57.61,75.2,10.29
Acajutla,86,SV,1604294752,72,13.59,-89.83,79.21,7.54
Paamiut,47,GL,1604294752,92,61.99,-49.67,26.37,4.83
Ridgecrest,12,US,1604294752,12,35.62,-117.67,64.99,3.4
Berlevåg,0,NO,1604294753,80,70.86,29.09,41.0,39.15
Padang,79,ID,1604294753,68,-0.95,100.35,84.7,7.02
Ampanihy,0,MG,1604294753,58,-24.7,44.75,75.15,11.79
Torbay,40,CA,1604294542,74,47.67,-52.73,39.99,14.99
Mount Isa,0,AU,1604294753,8,-20.73,139.5,98.6,11.41
Hong Kong,20,HK,1604294656,42,22.29,114.16,86.0,11.41
Castro,62,BR,1604294584,86,-24.79,-50.01,50.49,9.78
Alyangula,80,AU,1604294754,17,-13.85,136.42,102.2,6.93
Vaini,40,TO,1604294441,83,-21.2,-175.2,78.8,10.29
São Filipe,54,CV,1604294754,77,14.9,-24.5,78.08,3.2
Puerto Ayora,100,EC,1604294754,92,-0.74,-90.35,70.0,5.99
Vila Franca do Campo,20,PT,1604294755,82,37.72,-25.43,62.6,16.11
Río Gallegos,0,AR,1604294502,81,-51.62,-69.22,46.4,8.05
Upala,100,CR,1604294755,94,10.9,-85.01,72.91,1.14
Saint Paul Harbor,90,US,1604294755,39,57.79,-152.41,28.4,10.29
Boa Vista,75,BR,1604294546,83,2.82,-60.67,75.2,4.7
Nikolskoye,90,RU,1604294755,100,59.7,30.79,33.8,8.95
Sinnamary,97,GF,1604294756,83,5.38,-52.95,79.68,7.43
Ribeira Grande,21,PT,1604294546,70,38.52,-28.7,62.64,18.32
Íos,0,GR,1604294756,55,36.73,25.28,64.4,10.29
Chokurdakh,100,RU,1604294756,93,70.63,147.92,-1.17,13.0
Saint-Philippe,40,RE,1604294705,50,-21.36,55.77,75.2,3.36
Qaanaaq,0,GL,1604294756,74,77.48,-69.36,3.25,5.57
El Rincón,76,HN,1604294756,100,14.58,-87.93,60.13,4.05
Batasan,85,PH,1604294587,75,12.77,120.78,82.98,7.56
Zhezkazgan,83,KZ,1604294757,41,47.8,67.71,48.47,5.97
Roebourne,19,AU,1604294757,35,-20.78,117.13,86.11,19.33
Vila,98,PT,1604294757,95,42.03,-8.16,59.0,6.2
San Patricio,1,US,1604294758,68,28.02,-97.52,64.4,10.29
Chui,18,UY,1604294758,87,-33.7,-53.46,51.08,3.24
Bethel,40,US,1604294532,56,41.37,-73.41,41.0,14.99
Cape Town,0,ZA,1604294758,68,-33.93,18.42,64.99,8.05
Atar,100,MR,1604294758,21,20.52,-13.05,77.7,9.19
Butaritari,40,KI,1604294759,80,3.07,172.79,82.13,10.4
Bengkulu,100,ID,1604294759,64,-3.8,102.27,85.15,4.94
Atuona,59,PF,1604294707,78,-9.8,-139.03,77.67,15.05
Hilo,1,US,1604294445,69,19.73,-155.09,80.6,3.36
Camalú,0,MX,1604294759,59,30.85,-116.07,65.16,3.18
Dubbo,27,AU,1604294759,29,-32.25,148.62,78.8,8.05
Orange Cove,75,US,1604294759,58,36.62,-119.31,59.0,3.53
Areosa,90,PT,1604294760,93,41.72,-8.86,66.0,11.41
Omsukchan,100,RU,1604294760,94,62.53,155.8,16.16,6.4
Inhambane,40,MZ,1604294760,69,-23.86,35.38,77.0,9.17
Nome,1,US,1604294760,92,64.5,-165.41,10.4,4.61
Corinth,34,GR,1604294760,65,37.94,22.96,57.99,1.86
Najrān,0,SA,1604294761,24,17.49,44.13,68.0,3.51
Hithadhoo,100,MV,1604294761,82,-0.6,73.08,80.11,12.66
Honningsvåg,75,NO,1604294761,81,70.98,25.97,44.6,25.28
Havre-St-Pierre,90,CA,1604294761,93,50.23,-63.6,42.8,14.99
Ayan,100,RU,1604294761,98,56.45,138.17,26.08,20.83
Constitución,9,CL,1604294762,90,-35.33,-72.42,51.46,8.93
Conde,75,BR,1604294696,83,-7.26,-34.91,77.0,4.7
Mokhotlong,15,LS,1604294762,76,-29.29,29.07,45.3,1.88
Saint-Augustin,100,CA,1604294762,86,51.23,-58.65,39.81,14.43
Unnāo,0,IN,1604294762,47,26.53,80.5,77.0,5.82
Lunenburg,100,CA,1604294762,100,44.38,-64.32,55.99,33.33
Zvishavane,97,ZW,1604294763,79,-20.33,30.07,63.79,6.55
Kirkwall,83,GB,1604294763,81,58.98,-2.96,48.2,18.34
Dikson,92,RU,1604294763,97,73.51,80.55,16.72,8.57
Payo,96,ID,1604294763,50,-3.75,103.64,91.74,1.9
Guerrero Negro,0,MX,1604294763,76,27.98,-114.06,68.94,10.38
Cobija,65,BO,1604294764,61,-11.03,-68.77,71.8,1.88
Lompoc,1,US,1604294696,77,34.64,-120.46,62.6,4.47
Maniitsoq,80,GL,1604294764,94,65.42,-52.9,22.82,9.42
Grand Gaube,75,MU,1604294764,57,-20.01,57.66,75.2,10.29
Beringovskiy,81,RU,1604294764,93,63.05,179.32,23.92,4.47
Richards Bay,100,ZA,1604294764,93,-28.78,32.04,64.62,4.16
Naryan-Mar,94,RU,1604294764,96,67.67,53.09,32.72,9.62
Narsaq,0,GL,1604294765,61,60.92,-46.05,17.6,5.82
Cuitzeo (La Estancia),5,MX,1604294765,32,20.33,-102.78,66.2,3.36
Orbetello,40,IT,1604294765,87,42.44,11.22,59.0,3.36
Teya,100,RU,1604294765,90,60.38,92.63,34.34,11.65
Airai,97,TL,1604294765,50,-8.93,125.41,78.93,3.6
Tsiroanomandidy,34,MG,1604294765,50,-18.77,46.03,78.8,3.18
Tessalit,68,ML,1604294766,27,20.2,1.01,70.59,17.25
Arroio dos Ratos,0,BR,1604294766,87,-30.08,-51.73,61.0,4.7
Goderich,100,CA,1604294766,86,43.75,-81.72,33.8,29.97
Lagoa Vermelha,5,BR,1604294766,98,-28.21,-51.53,47.98,4.94
Lavrentiya,19,RU,1604294766,89,65.58,-171.0,21.15,7.94
Jequié,94,BR,1604294766,91,-13.86,-40.08,73.04,1.97
Novoagansk,86,RU,1604294766,97,61.94,76.66,24.28,12.19
Kourou,99,GF,1604294767,100,5.16,-52.65,75.2,3.36
Arraial do Cabo,1,BR,1604294722,71,-22.97,-42.03,67.77,14.85
Kaeo,99,NZ,1604294767,83,-35.1,173.78,70.0,8.99
Olinda,40,BR,1604294767,74,-8.01,-34.86,80.6,5.82
Tura,85,IN,1604294767,70,25.52,90.22,81.64,2.35
Havelock,1,US,1604294692,82,34.88,-76.9,57.2,13.87
Zhigansk,100,RU,1604294767,92,66.77,123.37,2.7,22.15
Port Macquarie,61,AU,1604294611,52,-31.43,152.92,73.99,3.0
Kushmurun,1,KZ,1604294768,90,52.45,64.63,33.73,7.49
Walvis Bay,90,NA,1604294768,87,-22.96,14.51,54.0,8.05
Hammerfest,75,NO,1604294523,81,70.66,23.68,42.8,51.67
Huarmey,37,PE,1604294769,87,-10.07,-78.15,60.69,6.91
Victor Harbor,14,AU,1604294769,44,-35.57,138.62,80.01,1.01
Pisco,90,PE,1604294769,82,-13.7,-76.22,64.99,9.17
Kysyl-Syr,43,RU,1604294769,90,63.9,122.76,6.1,8.46
George Town,40,MY,1604294755,74,5.41,100.34,86.0,8.05
Sumbe,87,AO,1604294769,88,-11.21,13.84,76.35,3.31
Zhangaözen,0,KZ,1604294769,26,43.3,52.8,61.23,15.19
San-Pédro,58,CI,1604294770,92,4.75,-6.64,76.28,5.08
Nantucket,100,US,1604294770,86,41.28,-70.1,56.14,32.79
Pangnirtung,44,CA,1604294770,83,66.15,-65.71,7.3,5.88
Laguna,1,US,1604294770,66,38.42,-121.42,57.2,1.77
Aklavik,81,CA,1604294485,77,68.22,-135.01,5.0,1.12
Port Keats,69,AU,1604294771,44,-14.25,129.55,93.04,9.84
Klaksvík,45,FO,1604294771,81,62.23,-6.59,44.6,6.93
Bollnäs,100,SE,1604294771,85,61.35,16.39,52.38,15.21
Katsuura,75,JP,1604294771,68,35.13,140.3,69.01,11.41
Nisibis,75,TR,1604294771,12,37.08,41.22,73.4,23.04
Ode,77,NG,1604294771,97,7.79,5.71,69.08,2.62
Nchelenge,46,ZM,1604294772,66,-9.35,28.73,73.53,4.38
Whitianga,100,NZ,1604294541,77,-36.83,175.7,71.01,4.0
East London,20,ZA,1604294547,88,-33.02,27.91,64.4,11.41
Krasnyy Chikoy,0,RU,1604294772,79,50.36,108.75,23.41,4.05
Province of Mantua,80,IT,1604294772,97,45.17,10.78,53.01,1.01
Ilulissat,100,GL,1604294772,73,69.22,-51.1,19.4,1.12
Pizhanka,0,RU,1604294772,96,57.46,48.54,28.74,4.32
Buraidah,0,SA,1604294504,42,26.33,43.98,66.2,8.05
Akdepe,0,TM,1604294773,30,42.06,59.38,57.2,9.17
Wilson,20,US,1604294773,41,36.15,-86.28,41.0,9.17
Portland,1,US,1604294753,62,45.52,-122.68,53.01,8.05
Eureka,1,US,1604294563,93,40.8,-124.16,50.0,3.36
Champerico,46,GT,1604294773,93,14.3,-91.92,69.01,3.4
Kabinda,98,CD,1604294774,88,-6.13,24.48,68.49,2.8
Yellowknife,90,CA,1604294548,84,62.46,-114.35,6.8,4.7
Yabassi,40,CM,1604294774,100,4.46,9.97,73.4,3.36
Huilong,58,CN,1604294774,63,31.81,121.66,70.0,12.44
Clyde River,90,CA,1604294775,84,70.47,-68.59,8.6,16.11
Rawson,93,AR,1604294775,22,-43.3,-65.1,75.34,21.92
Magdagachi,99,RU,1604294775,90,53.45,125.8,18.36,10.02
Kendal,100,GB,1604294775,98,54.33,-2.75,48.99,1.01
Nosy Varika,82,MG,1604294775,62,-20.58,48.53,73.13,1.66
Urambo,37,TZ,1604294775,54,-5.07,32.05,73.67,9.26
Broken Hill,28,AU,1604294775,17,-31.95,141.43,86.0,5.82
Kavieng,8,PG,1604294776,65,-2.57,150.8,86.02,2.71
Salalah,0,OM,1604294521,54,17.02,54.09,80.6,4.7
Longyearbyen,0,SJ,1604294508,69,78.22,15.64,35.6,25.28
Balikpapan,20,ID,1604294511,66,-1.27,116.83,86.0,6.93
Quesnel,90,CA,1604294762,61,53.0,-122.5,46.4,8.05
Port-Gentil,99,GA,1604294776,88,-0.72,8.78,77.81,11.68
Tucumã,43,BR,1604294776,84,-0.18,-50.05,78.12,6.17
Kudahuvadhoo,26,MV,1604294777,71,2.67,72.89,83.05,8.16
Cedartown,1,US,1604294777,33,34.05,-85.25,48.2,19.46
Husavik,20,IS,1604294777,51,66.04,-17.34,39.2,13.87
Benešov nad Ploučnicí,100,CZ,1604294777,97,50.74,14.31,54.0,3.0
Grindavik,75,IS,1604294777,93,63.84,-22.43,35.6,9.17
Champaign,1,US,1604294500,73,40.13,-88.2,30.99,6.93
Fond du Lac,1,US,1604294701,50,43.77,-88.44,28.4,5.82
Jūybār,0,IR,1604294777,82,36.64,52.91,62.6,4.7
Sakakah,40,SA,1604294778,24,29.97,40.21,68.0,4.7
Ca Mau,100,VN,1604294625,76,9.18,105.15,84.76,6.6
Alamogordo,1,US,1604294778,53,32.9,-105.96,54.0,3.36
Eshowe,98,ZA,1604294778,95,-28.89,31.47,59.52,1.83
Cherskiy,93,RU,1604294778,91,68.75,161.3,0.18,5.35
Kumul,20,CN,1604294779,34,42.8,93.45,55.36,4.56
Baijiantan,12,CN,1604294779,50,45.63,85.18,47.25,1.57
Vigía del Fuerte,96,CO,1604294779,96,6.58,-76.89,72.48,2.68
Boysun,20,UZ,1604294779,22,38.21,67.2,60.03,2.04
Aksarka,66,RU,1604294779,95,66.56,67.8,22.5,9.37
Sargatskoye,80,RU,1604294779,89,55.61,73.5,33.51,8.5
Leningradskiy,87,RU,1604294780,84,69.38,178.42,17.98,4.99
Souillac,75,MU,1604294780,57,-20.52,57.52,75.2,10.29
Dunedin,34,NZ,1604294780,70,-45.87,170.5,51.01,11.99
Salinópolis,65,BR,1604294780,85,-0.61,-47.36,78.67,8.68
Brae,40,GB,1604294565,81,60.4,-1.35,50.0,29.97
Acaraú,69,BR,1604294685,78,-2.89,-40.12,80.26,10.51
Salaga,92,GH,1604294781,82,8.55,-0.52,75.65,3.65
Teahupoo,75,PF,1604294587,69,-17.83,-149.27,82.4,3.36
Umluj,15,SA,1604294781,53,25.02,37.27,81.03,2.48
Ughelli,81,NG,1604294781,97,5.49,6.01,74.28,1.05
Alice Springs,0,AU,1604294547,9,-23.7,133.88,96.8,6.93
Nabire,90,ID,1604294706,81,-3.37,135.48,83.26,4.0
Nivelles,75,BE,1604294781,82,50.6,4.33,63.0,23.04
Alta Floresta,100,BR,1604294781,98,-9.88,-56.09,69.93,2.35
Vallenar,0,CL,1604294782,56,-28.57,-70.76,54.27,1.36
Sukumo,99,JP,1604294782,91,32.93,132.73,62.35,5.26
Moose Factory,90,CA,1604294782,79,51.26,-80.61,23.0,13.87
Ulkan,32,RU,1604294782,79,57.24,107.32,21.83,8.93
Biak,100,ID,1604294782,62,-0.91,122.88,85.64,6.55
Bonavista,30,CA,1604294782,80,48.65,-53.11,39.2,6.93
Salou,75,ES,1604294677,82,41.08,1.14,55.99,6.93
Cidreira,8,BR,1604294569,65,-30.18,-50.21,60.66,4.03
Ketchikan,90,US,1604294783,100,55.34,-131.65,51.8,40.26
Kathu,20,TH,1604294442,70,7.92,98.33,87.8,4.7
Chinandega,96,NI,1604294783,94,12.63,-87.13,74.48,2.95
Abu Samrah,100,SY,1604294783,73,35.3,37.18,63.63,4.41
Tres Arroyos,72,AR,1604294783,65,-38.37,-60.28,52.54,9.64
Inuvik,80,CA,1604294524,77,68.35,-133.72,5.0,1.12
Lavumisa,100,SZ,1604294784,86,-27.31,31.89,64.18,0.25
Rio Grande,0,BR,1604294683,98,-32.03,-52.1,48.99,3.6
Batemans Bay,56,AU,1604294784,73,-35.72,150.18,68.0,3.0
La Sarre,100,CA,1604294784,94,48.8,-79.2,19.9,19.35
Ucluelet,94,CA,1604294727,88,48.93,-125.55,46.99,8.63
Treinta y Tres,14,UY,1604294784,86,-33.23,-54.38,45.72,1.72
Acarí,73,PE,1604294784,74,-15.43,-74.62,63.9,3.29
Changde,63,CN,1604294785,44,29.05,111.68,69.85,7.74
Srednekolymsk,38,RU,1604294785,90,67.45,153.68,-6.56,7.76
Hrubieszów,52,PL,1604294785,91,50.8,23.89,37.76,6.4
Port Lincoln,82,AU,1604294785,39,-34.73,135.87,77.32,15.66
Xichang,98,CN,1604294785,66,27.9,102.26,50.16,2.13
Sicuani,100,PE,1604294785,67,-14.27,-71.23,47.43,0.85
Avera,1,US,1604294785,43,33.19,-82.53,55.4,12.75
West Wendover,1,US,1604294786,47,40.74,-114.07,35.6,2.3
Asha,26,RU,1604294786,82,55.0,57.27,36.5,1.9
Bonthe,3,SL,1604294786,84,7.53,-12.51,77.97,5.48
Prince Rupert,90,CA,1604294489,87,54.32,-130.32,46.4,26.4
Bac Lieu,99,VN,1604294787,77,9.29,105.72,83.86,11.5
Makakilo City,1,US,1604294787,83,21.35,-158.09,78.8,0.69
Anadyr,75,RU,1604294558,85,64.75,177.48,12.2,6.71
Kalianget,90,ID,1604294787,62,-7.05,113.93,86.59,9.66
Khudumelapye,50,BW,1604294787,73,-23.88,24.75,65.98,14.32
Yar-Sale,45,RU,1604294787,96,66.83,70.83,23.14,10.31
Los Llanos de Aridane,0,ES,1604294530,32,28.66,-17.92,69.8,8.05
Matane,100,CA,1604294787,1,48.83,-67.52,42.01,7.56
Santa Cruz de la Sierra,75,BO,1604294787,38,-17.8,-63.17,77.0,10.29
Geraldton,75,AU,1604294536,60,-28.77,114.6,69.8,18.34
Snyder,1,US,1604294788,57,32.72,-100.92,51.8,6.93
Granada,0,ES,1604294743,87,37.19,-3.61,55.0,1.12
Methóni,20,GR,1604294788,93,36.82,21.7,61.0,4.7
Taseyevo,100,RU,1604294788,78,57.22,94.9,37.81,6.46
Glinishchevo,90,RU,1604294788,100,53.3,34.07,46.4,6.71
Ambilobe,61,MG,1604294788,46,-13.2,49.05,79.68,6.98
Husainābād,22,IN,1604294789,34,24.53,84.02,81.81,5.57
Suntar,0,RU,1604294789,83,62.14,117.63,10.35,7.94
Bilibino,100,RU,1604294789,93,68.05,166.44,9.39,1.28
Esperance,90,AU,1604294789,100,-33.87,121.9,64.4,5.82
Tilichiki,80,RU,1604294535,95,60.47,166.1,27.39,3.29
Ust'-Omchug,100,RU,1604294789,96,61.15,149.63,24.8,1.7
Hobyo,2,SO,1604294789,72,5.35,48.53,81.45,8.32
Houma,1,US,1604294790,62,29.6,-90.72,57.99,9.17
Kizlyar,100,RU,1604294790,76,43.85,46.72,55.65,9.57
Olafsvik,93,IS,1604294790,93,64.89,-23.71,36.23,21.5
Saint-Pierre,40,RE,1604294443,50,-21.34,55.48,75.2,3.36
Lüderitz,82,NA,1604294790,78,-26.65,15.16,59.67,3.62
Ghanzi,81,BW,1604294791,51,-21.57,21.78,71.87,14.67
Kachug,2,RU,1604294791,76,53.96,105.88,21.47,3.53
Oshikango,37,NA,1604294791,20,-17.4,15.88,77.0,5.82
Baunatal,75,DE,1604294791,93,51.25,9.41,59.0,8.05
Logan,1,US,1604294514,59,41.74,-111.83,46.0,4.03
Petropavlovsk-Kamchatskiy,55,RU,1604294791,60,53.05,158.65,42.8,6.71
San Cristobal,99,VE,1604294791,93,7.77,-72.22,66.25,1.7
Luga,0,RU,1604294792,98,58.74,29.85,31.01,6.04
Gizo Government Station,63,SB,1604294792,69,-8.1,156.84,85.37,2.53
Ahvāz,0,IR,1604294792,45,31.32,48.67,68.0,2.24
Samfya,69,ZM,1604294792,60,-11.36,29.56,72.75,11.25
Stepnyak,97,KZ,1604294792,91,52.83,70.78,33.01,9.6
Virtsu,99,EE,1604294792,73,58.57,23.51,46.0,14.0
Alekseyevsk,11,RU,1604294793,82,57.84,108.35,20.43,8.19
Falam,20,MM,1604294793,84,22.92,93.68,70.47,0.76
Katangli,100,RU,1604294793,85,51.71,143.23,40.89,15.19
Thompson,90,CA,1604294517,92,55.74,-97.86,26.6,4.7
Luena,36,AO,1604294793,74,-11.78,19.92,63.52,3.76
Betioky,0,MG,1604294793,42,-23.72,44.38,82.51,9.17
Winneba,81,GH,1604294794,91,5.35,-0.62,76.84,6.22
Ossora,100,RU,1604294794,91,59.24,163.07,33.15,3.8
Beloha,2,MG,1604294794,59,-25.17,45.05,75.96,15.5
Dafeng,63,CN,1604294794,58,23.45,108.59,74.62,10.98
Camopi,13,GF,1604294794,97,3.17,-52.32,72.5,1.39
Vidisha,11,IN,1604294794,24,23.53,77.82,82.4,3.36
Fairlie,97,GB,1604294795,93,55.76,-4.86,46.99,10.29
Arlit,0,NE,1604294795,29,18.74,7.39,67.98,5.44
Svetlaya,17,RU,1604294795,54,46.54,138.33,47.23,7.09
Bambous Virieux,75,MU,1604294551,57,-20.34,57.76,75.2,10.29
Xining,11,CN,1604294795,56,36.62,101.77,41.49,2.33
Tezu,82,IN,1604294796,71,27.92,96.17,76.14,1.7
Bathsheba,40,BB,1604294796,78,13.22,-59.52,82.4,23.04
Bambari,94,CF,1604294796,90,5.77,20.68,71.98,1.36
Gravdal,75,NO,1604294796,81,68.12,13.5,50.0,9.17
Craig,1,US,1604294796,74,40.52,-107.55,39.2,6.2
Jalu,1,LY,1604294796,73,29.03,21.55,60.73,6.69
Kaura Namoda,75,NG,1604294796,27,12.59,6.58,71.91,9.69
Vestmannaeyjar,87,IS,1604294796,75,63.44,-20.27,38.98,16.55
Aksha,47,RU,1604294797,76,50.28,113.29,23.29,13.11
Peniche,36,PT,1604294797,92,39.36,-9.38,64.0,1.01
Westport,83,US,1604294650,78,41.14,-73.36,43.0,18.14
Chunoyar,100,RU,1604294797,86,57.45,97.32,35.56,9.01
Morant Bay,20,JM,1604294797,88,17.88,-76.41,78.8,10.29
Kruisfontein,11,ZA,1604294546,79,-34.0,24.73,66.0,1.99
Jasper,1,US,1604294797,74,37.2,-94.35,37.0,3.74
Mazara del Vallo,20,IT,1604294798,81,37.66,12.59,64.99,3.36
Toamasina,40,MG,1604294798,65,-18.17,49.38,77.0,6.93
Garoowe,0,SO,1604294798,44,8.41,48.48,77.7,8.25
Sept-Îles,100,CA,1604294798,100,50.2,-66.38,37.99,4.7
Guánica,55,PR,1604294798,84,17.97,-66.91,77.0,1.01
Bolobo,100,CD,1604294798,96,-2.17,16.23,71.4,2.51
Timizart,0,DZ,1604294799,51,36.8,4.27,58.86,4.65
Nushki,0,PK,1604294799,18,29.55,66.02,66.06,2.71
Plettenberg Bay,0,ZA,1604294799,76,-34.05,23.37,65.32,6.6
Millinocket,90,US,1604294799,100,45.66,-68.71,42.8,2.53
Crişan,26,RO,1604294707,93,44.97,29.47,41.0,5.88
Kwang Binh,81,VN,1604294512,70,17.48,106.6,80.49,13.47
Yulara,0,AU,1604294799,9,-25.24,130.99,104.0,9.17
Marrakesh,0,MA,1604294774,54,31.63,-8.01,57.2,1.12
Mpulungu,64,ZM,1604294800,52,-8.76,31.11,79.59,2.93
Caravelas,100,BR,1604294800,89,-17.71,-39.25,71.13,11.48
Prescott,1,US,1604294613,47,34.54,-112.47,64.4,4.7
Lebu,92,CL,1604294554,94,-37.62,-73.65,51.91,8.68
Dolores,28,AR,1604294800,66,-36.31,-57.68,49.64,2.86
Tiksi,8,RU,1604294529,90,71.69,128.87,-5.04,6.55
Guadalupe Victoria,1,MX,1604294801,23,32.29,-115.11,75.2,4.7
Fengrun,0,CN,1604294801,34,39.83,118.12,51.78,16.73
Waingapu,43,ID,1604294801,53,-9.66,120.26,88.45,9.82
Alofi,90,NU,1604294801,88,-19.06,-169.92,77.0,14.99
Macia,18,MZ,1604294801,72,-25.03,33.1,73.83,0.81
Hofn,0,IS,1604294802,76,64.25,-15.21,35.47,13.6
Codrington,31,AU,1604294802,69,-38.27,141.97,74.68,11.54
Dingle,96,PH,1604294443,77,11.0,122.67,84.24,14.45
Togul,99,RU,1604294802,89,53.47,85.91,34.59,6.87
Āsmār,0,AF,1604294802,18,35.03,71.36,72.12,5.48
Terrace,90,CA,1604294803,53,54.52,-128.6,51.8,14.99
Wajima,75,JP,1604294803,100,37.4,136.9,57.2,6.93
Mossamedes,8,AO,1604294803,79,-15.2,12.15,69.08,2.19
Cavalcante,86,BR,1604294803,91,-13.8,-47.46,67.41,2.75
Mutoko,0,ZW,1604294803,70,-17.4,32.23,66.69,5.88
Scottsbluff,1,US,1604294803,74,41.87,-103.67,53.01,6.93
Jieshi,74,CN,1604294803,55,22.81,115.83,82.99,1.99
Tucuruí,18,BR,1604294605,67,-3.77,-49.67,78.17,3.67
Hambantota,64,LK,1604294804,65,6.12,81.12,85.86,2.26
Visby,90,SE,1604294804,93,57.64,18.3,53.01,18.34
Nyurba,78,RU,1604294804,86,63.28,118.33,8.04,9.95
Fairbanks,1,US,1604294804,75,64.84,-147.72,0.0,2.24
Lindi,51,TZ,1604294804,62,-10.0,39.72,81.66,4.97
Ostrów Mazowiecka,24,PL,1604294700,86,52.8,21.9,45.0,3.0
Itoman,75,JP,1604294805,69,26.12,127.67,82.4,17.22
Batagay,91,RU,1604294805,88,67.63,134.63,-10.3,4.68
Cheb,100,CZ,1604294805,98,50.08,12.37,55.99,1.01
Rosarito,5,MX,1604294805,93,32.33,-117.03,68.0,2.66
Luxor,0,EG,1604294805,77,25.7,32.64,69.8,4.7
Kiryat Gat,89,IL,1604294805,80,31.61,34.76,70.0,5.41
Marsá Maţrūḩ,40,EG,1604294805,82,31.35,27.25,62.6,5.82
Boyolangu,46,ID,1604294805,69,-8.12,111.89,84.16,8.3
Pringsewu,78,ID,1604294806,55,-5.36,104.97,89.08,7.85
Ahipara,99,NZ,1604294444,89,-35.17,173.17,66.25,7.61
Sonoita,4,MX,1604294806,24,31.85,-112.83,72.0,2.06
Chino Valley,1,US,1604294806,57,34.76,-112.45,64.4,4.7
Hanzhong,0,CN,1604294806,28,33.07,107.03,65.66,1.7
Tual,68,ID,1604294806,74,-5.67,132.75,83.52,11.77
Lantana,1,US,1604294806,94,26.59,-80.05,79.0,4.79
Hamilton,1,US,1604294534,55,39.18,-84.53,35.01,10.29
Vengerovo,97,RU,1604294807,87,55.68,76.75,33.84,10.2
Rocha,3,UY,1604294807,91,-34.48,-54.33,48.33,1.7
Dwārka,0,IN,1604294807,35,22.24,68.97,85.35,10.92
Tuzha,10,RU,1604294807,96,57.61,47.94,29.05,4.0
Colmenar Viejo,6,ES,1604294807,90,40.66,-3.77,54.0,0.76
Saint-François,0,FR,1604294808,67,46.42,3.91,62.6,5.82
Caluquembe,61,AO,1604294808,83,-13.78,14.68,63.55,1.14
Chiplūn,3,IN,1604294808,52,17.53,73.52,88.65,1.88
Kattivākkam,20,IN,1604294756,59,13.22,80.32,89.6,3.36
Huittinen,90,FI,1604294808,81,61.18,22.7,46.0,18.34
Barra do Garças,76,BR,1604294535,82,-15.89,-52.26,70.52,2.42
Ngunguru,100,NZ,1604294808,83,-35.62,174.5,70.0,8.99
Swellendam,11,ZA,1604294809,77,-34.02,20.44,66.2,11.41
Roseburg,1,US,1604294809,81,43.22,-123.34,50.0,0.56
Dakar,0,SN,1604294809,53,14.69,-17.44,75.2,10.29
Gouré,25,NE,1604294809,27,13.98,10.27,75.99,8.99
Biała Podlaska,90,PL,1604294809,100,52.03,23.12,39.2,4.47
Mashivka,100,UA,1604294809,93,49.44,34.87,49.39,7.43
Empório,20,GR,1604294810,93,40.48,21.55,41.0,1.41
Shakiso,16,ET,1604294810,89,5.75,38.92,62.56,5.48
Savannah Bight,95,HN,1604294810,79,16.45,-85.85,82.85,21.72
Orsha,90,BY,1604294811,86,54.52,30.41,41.0,4.47
Duminichi,99,RU,1604294811,95,53.93,35.11,43.65,6.31
Almonte,20,ES,1604294811,80,37.26,-6.52,60.01,5.95
Burnie,55,AU,1604294811,63,-41.07,145.92,63.0,8.01
Sur,0,OM,1604294811,22,22.57,59.53,81.07,3.0
Sola,47,VU,1604294811,84,-13.88,167.55,81.19,17.34
Banda Aceh,100,ID,1604294599,68,5.56,95.32,84.88,8.81
Quatre Cocos,75,MU,1604294812,57,-20.21,57.76,75.2,10.29
Benidorm,0,ES,1604294812,99,38.54,-0.13,62.01,6.15
Buala,35,SB,1604294545,68,-8.14,159.59,85.77,3.62
Faanui,17,PF,1604294555,79,-16.48,-151.75,80.42,19.8
Bandar,96,ID,1604294813,52,2.05,99.75,91.58,2.01
Kutum,0,SD,1604294813,36,14.2,24.67,68.56,13.94
Pitimbu,75,BR,1604294600,83,-7.47,-34.81,77.0,4.7
Labuhan,99,ID,1604294813,65,-6.88,112.21,86.49,8.3
Korla,0,CN,1604294813,42,41.76,86.15,51.26,9.24
Springbok,0,ZA,1604294814,20,-29.66,17.89,77.0,13.87
Provideniya,40,RU,1604294814,62,64.38,-173.3,23.0,4.23
Pochutla,25,MX,1604294814,88,15.74,-96.47,77.0,3.76
Marovoay,40,MG,1604294814,51,-16.1,46.63,80.6,9.17
Henties Bay,100,NA,1604294814,93,-22.12,14.28,54.0,3.0
Paraíso,90,CR,1604294815,100,9.84,-83.87,68.0,1.12
Esfarāyen,0,IR,1604294815,29,37.08,57.51,51.8,2.01
Naze,20,JP,1604294815,69,28.37,129.48,80.6,5.82
Dera Bugti,0,PK,1604294815,11,29.03,69.15,81.57,5.99
Provincia di Grosseto,40,IT,1604294816,87,42.83,11.25,59.0,3.36
Tigzirt,0,DZ,1604294816,54,36.89,4.12,63.97,5.19
Havøysund,75,NO,1604294816,81,71.0,24.66,44.6,25.28
Bāglung,0,NP,1604294816,34,28.27,83.59,80.47,4.41
‘Ewa Beach,1,US,1604294817,83,21.32,-158.01,78.8,0.72
North Platte,1,US,1604294817,41,41.12,-100.77,42.8,8.05
Ciudad Bolivar,96,VE,1604294817,85,8.12,-63.55,78.08,2.68
Capela,20,BR,1604294817,78,-10.5,-37.05,78.8,9.17
Kavaratti,40,IN,1604294817,79,10.57,72.64,84.2,4.7
Kilimatinde,1,TZ,1604294818,64,-5.85,34.95,71.42,7.34
Barra do Corda,22,BR,1604294786,70,-5.5,-45.25,77.11,3.22
Otegen Batyra,75,KZ,1604294818,36,43.43,77.02,48.2,4.47
Annau,21,TM,1604294818,25,37.89,58.52,73.4,2.24
Santa Vitória do Palmar,32,BR,1604294818,86,-33.52,-53.37,51.98,3.22
Rochegda,81,RU,1604294818,96,62.8,43.25,26.98,4.59
Lac du Bonnet,100,CA,1604294819,69,50.25,-96.06,35.6,24.16
Nālūt,0,LY,1604294819,81,30.33,10.85,55.24,9.95
Shiraoi,75,JP,1604294819,77,42.55,141.35,63.0,18.34
Kargasok,98,RU,1604294820,96,59.06,80.86,32.5,11.65
Beyneu,0,KZ,1604294821,35,45.32,55.2,56.43,18.37
Wukari,94,NG,1604294822,88,7.85,9.78,72.99,2.62
Karatau,0,KZ,1604294822,31,43.17,70.47,56.89,1.52
Mujiayingzi,0,CN,1604294823,57,42.12,118.78,35.22,18.52
Brooks,41,CA,1604294824,60,50.58,-111.89,35.6,4.7
Krasnyy Profintern,90,RU,1604294824,93,57.74,40.44,35.6,4.47
Sibu,40,MY,1604294525,74,2.3,111.82,87.8,3.36
Ilhéus,95,BR,1604294825,96,-14.79,-39.05,70.14,8.79
Eyl,0,SO,1604294826,50,7.98,49.82,83.05,15.55
Thayetmyo,6,MM,1604294826,71,19.32,95.18,86.32,5.28
Trat,90,TH,1604294826,70,12.5,102.5,87.8,6.93
Vila Velha,75,BR,1604294786,72,-20.33,-40.29,68.0,14.99
Shihezi,0,CN,1604294828,49,44.3,86.03,47.25,2.64
Benjamin Constant,0,BR,1604294828,100,-4.38,-70.03,73.4,1.21
Chuzhou,69,CN,1604294828,30,32.32,118.3,70.9,7.34
Marsaxlokk,20,MT,1604294828,93,35.84,14.54,64.0,5.82
Cayenne,98,GF,1604294554,100,4.93,-52.33,75.2,3.36
Buchanan,25,LR,1604294829,89,5.88,-10.05,77.22,5.48
Linxia Chengguanzhen,98,CN,1604294829,50,35.6,103.21,45.52,3.49
Mirny,0,RU,1604294830,77,62.54,113.96,6.8,13.42
Raja,95,SS,1604294830,77,8.46,25.68,74.03,1.23
Slave Lake,75,CA,1604294830,86,55.28,-114.77,37.4,2.24
Deogarh,1,IN,1604294830,49,21.53,84.73,86.38,4.88
Turukhansk,100,RU,1604294831,98,65.82,87.98,21.06,11.39
Samarai,56,PG,1604294587,75,-10.62,150.67,83.82,11.81
Lüshunkou,90,CN,1604294831,41,38.8,121.27,55.4,13.42
Bukachacha,7,RU,1604294831,74,52.98,116.92,19.06,8.68
Coyhaique,0,CL,1604294193,62,-45.58,-72.07,51.8,3.36
Te Anau,10,NZ,1604294563,46,-45.42,167.72,58.89,3.56
Kotido,42,UG,1604294832,60,2.98,34.13,72.7,19.6
Sémbé,100,CG,1604294832,95,1.65,14.58,70.34,1.19
Tromsø,75,NO,1604294630,61,69.65,18.96,48.2,27.51
Haines Junction,100,CA,1604294833,84,60.75,-137.51,6.8,2.24
Bereket,0,TM,1604294833,18,39.24,55.52,74.62,8.41
Ostrovnoy,100,RU,1604294833,87,68.05,39.51,38.01,24.96
San Jerónimo,80,PE,1604294833,70,-11.95,-75.28,51.57,1.21
San Rafael,30,AR,1604294833,29,-34.62,-68.33,65.95,2.75
Juneau,90,US,1604294834,92,58.3,-134.42,30.2,9.17
Gilgit,0,PK,1604294834,27,35.92,74.31,58.3,2.19
Itarema,66,BR,1604294834,76,-2.92,-39.92,80.37,10.67
Juntas,100,CR,1604294834,92,10.28,-84.96,72.97,2.17
Majene,94,ID,1604294834,59,-3.54,118.97,87.22,6.04
Calama,0,CL,1604294835,35,-22.47,-68.93,42.8,11.41
Mariehamn,90,AX,1604294835,100,60.1,19.93,50.0,27.51
Karratha,15,AU,1604294836,43,-20.74,116.85,83.77,18.61
Kefamenanu,85,ID,1604294836,33,-9.45,124.48,92.25,11.79
Mercedes,4,AR,1604294837,96,-34.65,-59.43,57.0,6.04
Khani,90,GE,1604294838,77,41.96,42.96,59.0,3.36
Manaure,100,CO,1604294839,78,11.78,-72.44,81.9,7.78
Pacific Grove,90,US,1604294839,93,36.62,-121.92,55.4,4.7
Altamira,59,BR,1604294839,65,-3.2,-52.21,77.34,0.67
Moorhead,1,US,1604294715,84,46.87,-96.77,32.0,16.11
Touros,75,BR,1604294840,83,-5.2,-35.46,78.8,6.93
Balkhash,0,KZ,1604294840,33,46.84,74.98,46.4,4.47
Taltal,9,CL,1604294841,75,-25.4,-70.48,56.53,1.05
Bahir Dar,20,ET,1604294841,69,11.59,37.39,63.7,4.56
Acapulco de Juárez,63,MX,1604294841,78,16.86,-99.89,80.01,5.95
Hay River,100,CA,1604294841,85,60.82,-115.8,15.8,8.05
Puebloviejo,100,CO,1604294842,79,10.99,-74.28,79.0,3.0
Byron Bay,40,AU,1604294842,60,-28.65,153.62,73.4,21.92
Brufut,5,GM,1604294842,100,13.38,-16.75,75.2,2.24
Joshīmath,1,IN,1604294843,27,30.57,79.57,64.11,4.83
Dudinka,75,RU,1604294843,85,69.41,86.18,21.2,6.71
Panacan,75,PH,1604294843,79,9.25,118.41,84.2,6.93
